Office Level,Province,District,Office Name,Administrative Centre,Latitude,Longitude,GPS Coordinate,Google Maps URL,CRS,Coordinate Basis,Verification Status,Is Proxy,Address / Landmark,Notes,Source URL,Date Compiled
Provincial,Central,,Central Provincial Health Office,Kabwe,-14.441563,28.445813,"-14.441563, 28.445813","https://www.google.com/maps?q=-14.441563,28.445813",WGS 84 / EPSG:4326,Decoded public Plus Code HC5W+98J,Address and Plus Code verified; building entrance not field-verified,No,"Independence Avenue, Kabwe",Coordinate derived from the published Plus Code.,https://www.africabizinfo.com/ZM/central-provincial-health-office,23/07/2026
Provincial,Copperbelt,,Copperbelt Provincial Health Office,Ndola,-12.967682,28.629771,"-12.967682, 28.629771","https://www.google.com/maps?q=-12.967682,28.629771",WGS 84 / EPSG:4326,Mapped PHO point,Verified public map point,No,"Kabompo Road, Ndola",,https://zm.near-place.com/copperbelt-provincial-health-office-2jjhwwc-ndola,23/07/2026
Provincial,Eastern,,Eastern Provincial Health Office,Chipata,-13.6333,32.65,"-13.633300, 32.650000","https://www.google.com/maps?q=-13.633300,32.650000",WGS 84 / EPSG:4326,Provincial-capital proxy,Address verified; exact building coordinates not independently verified,Yes,"Hospital Road, Chipata",Replace with surveyed office coordinates before operational routing.,https://eprocure.zppa.org.zm/epps/prepareViewCAOrganisation.do?id=27333,23/07/2026
Provincial,Luapula,,Luapula Provincial Health Office,Mansa,-11.20266,28.8947,"-11.202660, 28.894700","https://www.google.com/maps?q=-11.202660,28.894700",WGS 84 / EPSG:4326,Health-administration compound proxy,PHO city verified; coordinate uses mapped Mansa health-administration compound,Yes,Mansa,Coordinate coincides with the mapped Mansa District Health Office compound.,https://eprocure.zppa.org.zm/epps/prepareViewCAOrganisation.do?id=67694,23/07/2026
Provincial,Lusaka,,Lusaka Provincial Health Office,Lusaka,-15.410938,28.306312,"-15.410938, 28.306312","https://www.google.com/maps?q=-15.410938,28.306312",WGS 84 / EPSG:4326,Decoded public Plus Code H8Q4+JGQ,Address and Plus Code verified; building entrance not field-verified,No,"Plot 3, Saiase Road, Longacres",Coordinate derived from the published Plus Code.,https://www.africabizinfo.com/ZM/ministry-of-health-%7C-lusaka-provincial-097-4950402,23/07/2026
Provincial,Muchinga,,Muchinga Provincial Health Office,Chinsali,-10.560953,32.071436,"-10.560953, 32.071436","https://www.google.com/maps?q=-10.560953,32.071436",WGS 84 / EPSG:4326,Health-compound proxy,PHO location in Chinsali verified; coordinate uses adjacent Chinsali health compound,Yes,"Chinsali, near Chinsali District Hospital",The PHO is publicly documented as adjacent to the Chinsali health facilities.,https://www.muc.gov.zm/?p=4859,23/07/2026
Provincial,Northern,,Northern Provincial Health Office,Kasama,-10.2129,31.1808,"-10.212900, 31.180800","https://www.google.com/maps?q=-10.212900,31.180800",WGS 84 / EPSG:4326,Provincial-capital proxy,Office city verified; exact building coordinates not independently verified,Yes,Kasama,Replace with surveyed office coordinates before operational routing.,https://zambia.worldplaces.me/government-organizations-in-kasama/52077928-provincial-health-office-kasama.html,23/07/2026
Provincial,North-Western,,North-Western Provincial Health Office,Solwezi,-12.184688,26.404813,"-12.184688, 26.404813","https://www.google.com/maps?q=-12.184688,26.404813",WGS 84 / EPSG:4326,Decoded public Plus Code RC83+4W4,Address and Plus Code verified; building entrance not field-verified,No,"Plot 83532/1, off Independence Avenue, Kyankwakwa Road, Solwezi",Coordinate derived from the published Plus Code.,https://www.africabizinfo.com/ZM/provincial-health-office_2G-096-2683207,23/07/2026
Provincial,Southern,,Southern Provincial Health Office,Choma,-16.8089,26.9875,"-16.808900, 26.987500","https://www.google.com/maps?q=-16.808900,26.987500",WGS 84 / EPSG:4326,Provincial-capital proxy,Office city verified; exact building coordinates not independently verified,Yes,Choma,Replace with surveyed office coordinates before operational routing.,https://pubmed.ncbi.nlm.nih.gov/41761395/,23/07/2026
Provincial,Western,,Western Provincial Health Office,Mongu,-15.2484,23.1274,"-15.248400, 23.127400","https://www.google.com/maps?q=-15.248400,23.127400",WGS 84 / EPSG:4326,Provincial-capital proxy,Street address verified; exact building coordinates not independently verified,Yes,"Plot 4503, Independence Avenue, Mongu",Replace with surveyed office coordinates before operational routing.,https://eprocure.zppa.org.zm/epps/prepareViewCAOrganisation.do?id=39553,23/07/2026
District,Central,Chibombo,Chibombo District Health Office,Chibombo,-14.65808,28.07376,"-14.658080, 28.073760","https://www.google.com/maps?q=-14.658080,28.073760",WGS 84 / EPSG:4326,District-capital or district-reference proxy,Proxy only—DHO building not independently verified,Yes,,Coordinate inherited from the district-capital reference dataset. Do not treat as the DHO building entrance until field-verified.,https://github.com/repoxbeta/repox-countries/tree/main/src/metadata/countries/zm,23/07/2026
District,Central,Chisamba,Chisamba District Health Office,Chisamba,-14.83074,28.56539,"-14.830740, 28.565390","https://www.google.com/maps?q=-14.830740,28.565390",WGS 84 / EPSG:4326,District-capital or district-reference proxy,Proxy only—DHO building not independently verified,Yes,,Coordinate inherited from the district-capital reference dataset. Do not treat as the DHO building entrance until field-verified.,https://github.com/repoxbeta/repox-countries/tree/main/src/metadata/countries/zm,23/07/2026
District,Central,Chitambo,Chitambo District Health Office,Chitambo,-12.8636,30.56715,"-12.863600, 30.567150","https://www.google.com/maps?q=-12.863600,30.567150",WGS 84 / EPSG:4326,District-capital or district-reference proxy,Proxy only—DHO building not independently verified,Yes,,Coordinate inherited from the district-capital reference dataset. Do not treat as the DHO building entrance until field-verified.,https://github.com/repoxbeta/repox-countries/tree/main/src/metadata/countries/zm,23/07/2026
District,Central,Kabwe,Kabwe District Health Office,Kabwe,-14.4469,28.4464,"-14.446900, 28.446400","https://www.google.com/maps?q=-14.446900,28.446400",WGS 84 / EPSG:4326,District-capital or district-reference proxy,Proxy only—DHO building not independently verified,Yes,,Coordinate inherited from the district-capital reference dataset. Do not treat as the DHO building entrance until field-verified.,https://download.geonames.org/export/dump/,23/07/2026
District,Central,Kapiri Mposhi,Kapiri Mposhi District Health Office,Kapiri Mposhi,-13.9715,28.6698,"-13.971500, 28.669800","https://www.google.com/maps?q=-13.971500,28.669800",WGS 84 / EPSG:4326,District-capital or district-reference proxy,Proxy only—DHO building not independently verified,Yes,,Coordinate inherited from the district-capital reference dataset. Do not treat as the DHO building entrance until field-verified.,https://download.geonames.org/export/dump/,23/07/2026
District,Central,Luano,Luano District Health Office,Luano,-13.62508,29.39142,"-13.625080, 29.391420","https://www.google.com/maps?q=-13.625080,29.391420",WGS 84 / EPSG:4326,Mapped DHO building,Verified public map point,No,,Mapped as Luano District Health Office in Mkushi.,https://mapcarta.com/W376428267,23/07/2026
District,Central,Mkushi,Mkushi District Health Office,Mkushi,-13.62519,29.39189,"-13.625190, 29.391890","https://www.google.com/maps?q=-13.625190,29.391890",WGS 84 / EPSG:4326,Mapped DHO building,Verified public map point,No,,Mapped as Mkushi District Health Office.,https://mapcarta.com/W376464740,23/07/2026
District,Central,Mumbwa,Mumbwa District Health Office,Mumbwa,-14.9829,27.0619,"-14.982900, 27.061900","https://www.google.com/maps?q=-14.982900,27.061900",WGS 84 / EPSG:4326,District-capital or district-reference proxy,Proxy only—DHO building not independently verified,Yes,,Coordinate inherited from the district-capital reference dataset. Do not treat as the DHO building entrance until field-verified.,https://download.geonames.org/export/dump/,23/07/2026
District,Central,Ngabwe,Ngabwe District Health Office,Ngabwe,-14.0313,27.44175,"-14.031300, 27.441750","https://www.google.com/maps?q=-14.031300,27.441750",WGS 84 / EPSG:4326,District-capital or district-reference proxy,Proxy only—DHO building not independently verified,Yes,,Coordinate inherited from the district-capital reference dataset. Do not treat as the DHO building entrance until field-verified.,https://github.com/repoxbeta/repox-countries/tree/main/src/metadata/countries/zm,23/07/2026
District,Central,Serenje,Serenje District Health Office,Serenje,-13.2325,30.2352,"-13.232500, 30.235200","https://www.google.com/maps?q=-13.232500,30.235200",WGS 84 / EPSG:4326,District-capital or district-reference proxy,Proxy only—DHO building not independently verified,Yes,,Coordinate inherited from the district-capital reference dataset. Do not treat as the DHO building entrance until field-verified.,https://download.geonames.org/export/dump/,23/07/2026
District,Central,Shibuyunji,Shibuyunji District Health Office,Shibuyunji,-15.38923,27.70259,"-15.389230, 27.702590","https://www.google.com/maps?q=-15.389230,27.702590",WGS 84 / EPSG:4326,District-capital or district-reference proxy,Proxy only—DHO building not independently verified,Yes,,Coordinate inherited from the district-capital reference dataset. Do not treat as the DHO building entrance until field-verified.,https://github.com/repoxbeta/repox-countries/tree/main/src/metadata/countries/zm,23/07/2026
District,Copperbelt,Chililabombwe,Chililabombwe District Health Office,Chililabombwe,-12.3647,27.8229,"-12.364700, 27.822900","https://www.google.com/maps?q=-12.364700,27.822900",WGS 84 / EPSG:4326,District-capital or district-reference proxy,Proxy only—DHO building not independently verified,Yes,,Coordinate inherited from the district-capital reference dataset. Do not treat as the DHO building entrance until field-verified.,https://download.geonames.org/export/dump/,23/07/2026
District,Copperbelt,Chingola,Chingola District Health Office,Chingola,-12.529,27.8838,"-12.529000, 27.883800","https://www.google.com/maps?q=-12.529000,27.883800",WGS 84 / EPSG:4326,District-capital or district-reference proxy,Proxy only—DHO building not independently verified,Yes,,Coordinate inherited from the district-capital reference dataset. Do not treat as the DHO building entrance until field-verified.,https://download.geonames.org/export/dump/,23/07/2026
District,Copperbelt,Kalulushi,Kalulushi District Health Office,Kalulushi,-12.8415,28.0948,"-12.841500, 28.094800","https://www.google.com/maps?q=-12.841500,28.094800",WGS 84 / EPSG:4326,District-capital or district-reference proxy,Proxy only—DHO building not independently verified,Yes,,Coordinate inherited from the district-capital reference dataset. Do not treat as the DHO building entrance until field-verified.,https://download.geonames.org/export/dump/,23/07/2026
District,Copperbelt,Kitwe,Kitwe District Health Office,Kitwe,-12.79571,28.20735,"-12.795710, 28.207350","https://www.google.com/maps?q=-12.795710,28.207350",WGS 84 / EPSG:4326,Mapped DHO point,Verified public map point,No,,Mapped near Kitwe Teaching Hospital.,https://mapcarta.com/N4621758191,23/07/2026
District,Copperbelt,Luanshya,Luanshya District Health Office,Luanshya,-13.1367,28.4166,"-13.136700, 28.416600","https://www.google.com/maps?q=-13.136700,28.416600",WGS 84 / EPSG:4326,District-capital or district-reference proxy,Proxy only—DHO building not independently verified,Yes,,Coordinate inherited from the district-capital reference dataset. Do not treat as the DHO building entrance until field-verified.,https://download.geonames.org/export/dump/,23/07/2026
District,Copperbelt,Lufwanyama,Lufwanyama District Health Office,Lufwanyama,-12.952,27.41743,"-12.952000, 27.417430","https://www.google.com/maps?q=-12.952000,27.417430",WGS 84 / EPSG:4326,District-capital or district-reference proxy,Proxy only—DHO building not independently verified,Yes,,Coordinate inherited from the district-capital reference dataset. Do not treat as the DHO building entrance until field-verified.,https://github.com/repoxbeta/repox-countries/tree/main/src/metadata/countries/zm,23/07/2026
District,Copperbelt,Masaiti,Masaiti District Health Office,Masaiti,-13.409,28.719,"-13.409000, 28.719000","https://www.google.com/maps?q=-13.409000,28.719000",WGS 84 / EPSG:4326,District-capital or district-reference proxy,Proxy only—DHO building not independently verified,Yes,,Coordinate inherited from the district-capital reference dataset. Do not treat as the DHO building entrance until field-verified.,https://github.com/repoxbeta/repox-countries/tree/main/src/metadata/countries/zm,23/07/2026
District,Copperbelt,Mpongwe,Mpongwe District Health Office,Mpongwe,-13.5091,28.155,"-13.509100, 28.155000","https://www.google.com/maps?q=-13.509100,28.155000",WGS 84 / EPSG:4326,District-capital or district-reference proxy,Proxy only—DHO building not independently verified,Yes,,Coordinate inherited from the district-capital reference dataset. Do not treat as the DHO building entrance until field-verified.,https://download.geonames.org/export/dump/,23/07/2026
District,Copperbelt,Mufulira,Mufulira District Health Office,Mufulira,-12.5498,28.2407,"-12.549800, 28.240700","https://www.google.com/maps?q=-12.549800,28.240700",WGS 84 / EPSG:4326,District-capital or district-reference proxy,Proxy only—DHO building not independently verified,Yes,,Coordinate inherited from the district-capital reference dataset. Do not treat as the DHO building entrance until field-verified.,https://download.geonames.org/export/dump/,23/07/2026
District,Copperbelt,Ndola,Ndola District Health Office,Ndola,-12.9587,28.6366,"-12.958700, 28.636600","https://www.google.com/maps?q=-12.958700,28.636600",WGS 84 / EPSG:4326,District-capital or district-reference proxy,Proxy only—DHO building not independently verified,Yes,,Coordinate inherited from the district-capital reference dataset. Do not treat as the DHO building entrance until field-verified.,https://download.geonames.org/export/dump/,23/07/2026
District,Eastern,Chadiza,Chadiza District Health Office,Chadiza,-14.09739,32.48708,"-14.097390, 32.487080","https://www.google.com/maps?q=-14.097390,32.487080",WGS 84 / EPSG:4326,District-capital or district-reference proxy,Proxy only—DHO building not independently verified,Yes,,Coordinate inherited from the district-capital reference dataset. Do not treat as the DHO building entrance until field-verified.,https://github.com/repoxbeta/repox-countries/tree/main/src/metadata/countries/zm,23/07/2026
District,Eastern,Chama,Chama District Health Office,Chama,-11.25,32.83333,"-11.250000, 32.833330","https://www.google.com/maps?q=-11.250000,32.833330",WGS 84 / EPSG:4326,District-capital or district-reference proxy,Proxy only—DHO building not independently verified,Yes,,Coordinate inherited from the district-capital reference dataset. Do not treat as the DHO building entrance until field-verified.,https://github.com/repoxbeta/repox-countries/tree/main/src/metadata/countries/zm,23/07/2026
District,Eastern,Chasefu,Chasefu District Health Office,Chasefu,-11.92107,33.09249,"-11.921070, 33.092490","https://www.google.com/maps?q=-11.921070,33.092490",WGS 84 / EPSG:4326,District-capital or district-reference proxy,Proxy only—DHO building not independently verified,Yes,,Coordinate inherited from the district-capital reference dataset. Do not treat as the DHO building entrance until field-verified.,https://www.openstreetmap.org/,23/07/2026
District,Eastern,Chipangali,Chipangali District Health Office,Chipangali,-13.21638,32.76367,"-13.216380, 32.763670","https://www.google.com/maps?q=-13.216380,32.763670",WGS 84 / EPSG:4326,District-capital or district-reference proxy,Proxy only—DHO building not independently verified,Yes,,Coordinate inherited from the district-capital reference dataset. Do not treat as the DHO building entrance until field-verified.,https://www.openstreetmap.org/,23/07/2026
District,Eastern,Chipata,Chipata District Health Office,Chipata,-13.6333,32.65,"-13.633300, 32.650000","https://www.google.com/maps?q=-13.633300,32.650000",WGS 84 / EPSG:4326,District-capital or district-reference proxy,Proxy only—DHO building not independently verified,Yes,,Coordinate inherited from the district-capital reference dataset. Do not treat as the DHO building entrance until field-verified.,https://download.geonames.org/export/dump/,23/07/2026
District,Eastern,Kasenengwa,Kasenengwa District Health Office,Kasenengwa,-13.56876,32.4783,"-13.568760, 32.478300","https://www.google.com/maps?q=-13.568760,32.478300",WGS 84 / EPSG:4326,District-capital or district-reference proxy,Proxy only—DHO building not independently verified,Yes,,Coordinate inherited from the district-capital reference dataset. Do not treat as the DHO building entrance until field-verified.,https://www.openstreetmap.org/,23/07/2026
District,Eastern,Katete,Katete District Health Office,Katete,-14.04074,32.04329,"-14.040740, 32.043290","https://www.google.com/maps?q=-14.040740,32.043290",WGS 84 / EPSG:4326,District-capital or district-reference proxy,Proxy only—DHO building not independently verified,Yes,,Coordinate inherited from the district-capital reference dataset. Do not treat as the DHO building entrance until field-verified.,https://github.com/repoxbeta/repox-countries/tree/main/src/metadata/countries/zm,23/07/2026
District,Eastern,Lumezi,Lumezi District Health Office,Lumezi,-12.54161,33.03957,"-12.541610, 33.039570","https://www.google.com/maps?q=-12.541610,33.039570",WGS 84 / EPSG:4326,District-capital or district-reference proxy,Proxy only—DHO building not independently verified,Yes,,Coordinate inherited from the district-capital reference dataset. Do not treat as the DHO building entrance until field-verified.,https://www.openstreetmap.org/,23/07/2026
District,Eastern,Lundazi,Lundazi District Health Office,Lundazi,-12.2929,33.1782,"-12.292900, 33.178200","https://www.google.com/maps?q=-12.292900,33.178200",WGS 84 / EPSG:4326,District-capital or district-reference proxy,Proxy only—DHO building not independently verified,Yes,,Coordinate inherited from the district-capital reference dataset. Do not treat as the DHO building entrance until field-verified.,https://download.geonames.org/export/dump/,23/07/2026
District,Eastern,Lusangazi,Lusangazi District Health Office,Lusangazi,-13.666667,31.45,"-13.666667, 31.450000","https://www.google.com/maps?q=-13.666667,31.450000",WGS 84 / EPSG:4326,District-capital or district-reference proxy,Proxy only—DHO building not independently verified,Yes,,Coordinate inherited from the district-capital reference dataset. Do not treat as the DHO building entrance until field-verified.,https://github.com/repoxbeta/repox-countries/tree/main/src/metadata/countries/zm,23/07/2026
District,Eastern,Mambwe,Mambwe District Health Office,Mfuwe,-13.34208,31.92867,"-13.342080, 31.928670","https://www.google.com/maps?q=-13.342080,31.928670",WGS 84 / EPSG:4326,District-capital or district-reference proxy,Proxy only—DHO building not independently verified,Yes,,Coordinate inherited from the district-capital reference dataset. Do not treat as the DHO building entrance until field-verified.,https://github.com/repoxbeta/repox-countries/tree/main/src/metadata/countries/zm,23/07/2026
District,Eastern,Nyimba,Nyimba District Health Office,Nyimba,-14.34628,30.59705,"-14.346280, 30.597050","https://www.google.com/maps?q=-14.346280,30.597050",WGS 84 / EPSG:4326,District-capital or district-reference proxy,Proxy only—DHO building not independently verified,Yes,,Coordinate inherited from the district-capital reference dataset. Do not treat as the DHO building entrance until field-verified.,https://github.com/repoxbeta/repox-countries/tree/main/src/metadata/countries/zm,23/07/2026
District,Eastern,Petauke,Petauke District Health Office,Petauke,-14.2412,31.3197,"-14.241200, 31.319700","https://www.google.com/maps?q=-14.241200,31.319700",WGS 84 / EPSG:4326,District-capital or district-reference proxy,Proxy only—DHO building not independently verified,Yes,,Coordinate inherited from the district-capital reference dataset. Do not treat as the DHO building entrance until field-verified.,https://download.geonames.org/export/dump/,23/07/2026
District,Eastern,Sinda,Sinda District Health Office,Sinda,-14.22958,31.70967,"-14.229580, 31.709670","https://www.google.com/maps?q=-14.229580,31.709670",WGS 84 / EPSG:4326,District-capital or district-reference proxy,Proxy only—DHO building not independently verified,Yes,,Coordinate inherited from the district-capital reference dataset. Do not treat as the DHO building entrance until field-verified.,https://github.com/repoxbeta/repox-countries/tree/main/src/metadata/countries/zm,23/07/2026
District,Eastern,Vubwi,Vubwi District Health Office,Vubwi,-14.00612,32.90254,"-14.006120, 32.902540","https://www.google.com/maps?q=-14.006120,32.902540",WGS 84 / EPSG:4326,District-capital or district-reference proxy,Proxy only—DHO building not independently verified,Yes,,Coordinate inherited from the district-capital reference dataset. Do not treat as the DHO building entrance until field-verified.,https://github.com/repoxbeta/repox-countries/tree/main/src/metadata/countries/zm,23/07/2026
District,Luapula,Chembe,Chembe District Health Office,Chembe,-11.70652,28.65445,"-11.706520, 28.654450","https://www.google.com/maps?q=-11.706520,28.654450",WGS 84 / EPSG:4326,District-capital or district-reference proxy,Proxy only—DHO building not independently verified,Yes,,Coordinate inherited from the district-capital reference dataset. Do not treat as the DHO building entrance until field-verified.,https://github.com/repoxbeta/repox-countries/tree/main/src/metadata/countries/zm,23/07/2026
District,Luapula,Chiengi,Chiengi District Health Office,Chiengi,-8.77369,29.07954,"-8.773690, 29.079540","https://www.google.com/maps?q=-8.773690,29.079540",WGS 84 / EPSG:4326,District-capital or district-reference proxy,Proxy only—DHO building not independently verified,Yes,,Coordinate inherited from the district-capital reference dataset. Do not treat as the DHO building entrance until field-verified.,https://github.com/repoxbeta/repox-countries/tree/main/src/metadata/countries/zm,23/07/2026
District,Luapula,Chifunabuli,Chifunabuli District Health Office,Lubwe,-11.10851,29.64072,"-11.108510, 29.640720","https://www.google.com/maps?q=-11.108510,29.640720",WGS 84 / EPSG:4326,District-capital or district-reference proxy,Proxy only—DHO building not independently verified,Yes,,Coordinate inherited from the district-capital reference dataset. Do not treat as the DHO building entrance until field-verified.,https://www.openstreetmap.org/,23/07/2026
District,Luapula,Chipili,Chipili District Health Office,Chipili,-10.38368,29.12348,"-10.383680, 29.123480","https://www.google.com/maps?q=-10.383680,29.123480",WGS 84 / EPSG:4326,District-capital or district-reference proxy,Proxy only—DHO building not independently verified,Yes,,Coordinate inherited from the district-capital reference dataset. Do not treat as the DHO building entrance until field-verified.,https://github.com/repoxbeta/repox-countries/tree/main/src/metadata/countries/zm,23/07/2026
District,Luapula,Kawambwa,Kawambwa District Health Office,Kawambwa,-9.7915,29.0791,"-9.791500, 29.079100","https://www.google.com/maps?q=-9.791500,29.079100",WGS 84 / EPSG:4326,District-capital or district-reference proxy,Proxy only—DHO building not independently verified,Yes,,Coordinate inherited from the district-capital reference dataset. Do not treat as the DHO building entrance until field-verified.,https://download.geonames.org/export/dump/,23/07/2026
District,Luapula,Lunga,Lunga District Health Office,Lunga,-11.53801,30.09244,"-11.538010, 30.092440","https://www.google.com/maps?q=-11.538010,30.092440",WGS 84 / EPSG:4326,District-capital or district-reference proxy,Proxy only—DHO building not independently verified,Yes,,Coordinate inherited from the district-capital reference dataset. Do not treat as the DHO building entrance until field-verified.,https://github.com/repoxbeta/repox-countries/tree/main/src/metadata/countries/zm,23/07/2026
District,Luapula,Mansa,Mansa District Health Office,Mansa,-11.20266,28.8947,"-11.202660, 28.894700","https://www.google.com/maps?q=-11.202660,28.894700",WGS 84 / EPSG:4326,Mapped DHO building,Verified public map point,No,,Mapped near Mansa General Hospital.,https://mapcarta.com/W318002398,23/07/2026
District,Luapula,Milenge,Milenge District Health Office,Milenge,-12.40447,29.50072,"-12.404470, 29.500720","https://www.google.com/maps?q=-12.404470,29.500720",WGS 84 / EPSG:4326,Mapped DHO point,Verified public map point,No,,Mapped near East Seven aerodrome.,https://mapcarta.com/N11736948369,23/07/2026
District,Luapula,Mwansabombwe,Mwansabombwe District Health Office,Mwansabombwe,-9.87814,28.78084,"-9.878140, 28.780840","https://www.google.com/maps?q=-9.878140,28.780840",WGS 84 / EPSG:4326,District-capital or district-reference proxy,Proxy only—DHO building not independently verified,Yes,,Coordinate inherited from the district-capital reference dataset. Do not treat as the DHO building entrance until field-verified.,https://github.com/repoxbeta/repox-countries/tree/main/src/metadata/countries/zm,23/07/2026
District,Luapula,Mwense,Mwense District Health Office,Mwense,-10.43985,28.73309,"-10.439850, 28.733090","https://www.google.com/maps?q=-10.439850,28.733090",WGS 84 / EPSG:4326,District-capital or district-reference proxy,Proxy only—DHO building not independently verified,Yes,,Coordinate inherited from the district-capital reference dataset. Do not treat as the DHO building entrance until field-verified.,https://github.com/repoxbeta/repox-countries/tree/main/src/metadata/countries/zm,23/07/2026
District,Luapula,Nchelenge,Nchelenge District Health Office,Nchelenge,-9.34506,28.734,"-9.345060, 28.734000","https://www.google.com/maps?q=-9.345060,28.734000",WGS 84 / EPSG:4326,District-capital or district-reference proxy,Proxy only—DHO building not independently verified,Yes,,Coordinate inherited from the district-capital reference dataset. Do not treat as the DHO building entrance until field-verified.,https://download.geonames.org/export/dump/,23/07/2026
District,Luapula,Samfya,Samfya District Health Office,Samfya,-11.3649,29.5565,"-11.364900, 29.556500","https://www.google.com/maps?q=-11.364900,29.556500",WGS 84 / EPSG:4326,District-capital or district-reference proxy,Proxy only—DHO building not independently verified,Yes,,Coordinate inherited from the district-capital reference dataset. Do not treat as the DHO building entrance until field-verified.,https://download.geonames.org/export/dump/,23/07/2026
District,Lusaka,Chilanga,Chilanga District Health Office,Chilanga,-15.45131,28.07776,"-15.451310, 28.077760","https://www.google.com/maps?q=-15.451310,28.077760",WGS 84 / EPSG:4326,District-capital or district-reference proxy,Proxy only—DHO building not independently verified,Yes,,Coordinate inherited from the district-capital reference dataset. Do not treat as the DHO building entrance until field-verified.,https://github.com/repoxbeta/repox-countries/tree/main/src/metadata/countries/zm,23/07/2026
District,Lusaka,Chongwe,Chongwe District Health Office,Chongwe,-15.3292,28.682,"-15.329200, 28.682000","https://www.google.com/maps?q=-15.329200,28.682000",WGS 84 / EPSG:4326,District-capital or district-reference proxy,Proxy only—DHO building not independently verified,Yes,,Coordinate inherited from the district-capital reference dataset. Do not treat as the DHO building entrance until field-verified.,https://download.geonames.org/export/dump/,23/07/2026
District,Lusaka,Kafue,Kafue District Health Office,Kafue,-15.7691,28.1814,"-15.769100, 28.181400","https://www.google.com/maps?q=-15.769100,28.181400",WGS 84 / EPSG:4326,District-capital or district-reference proxy,Proxy only—DHO building not independently verified,Yes,,Coordinate inherited from the district-capital reference dataset. Do not treat as the DHO building entrance until field-verified.,https://download.geonames.org/export/dump/,23/07/2026
District,Lusaka,Luangwa,Luangwa District Health Office,Luangwa,-15.41487,30.01031,"-15.414870, 30.010310","https://www.google.com/maps?q=-15.414870,30.010310",WGS 84 / EPSG:4326,District-capital or district-reference proxy,Proxy only—DHO building not independently verified,Yes,,Coordinate inherited from the district-capital reference dataset. Do not treat as the DHO building entrance until field-verified.,https://github.com/repoxbeta/repox-countries/tree/main/src/metadata/countries/zm,23/07/2026
District,Lusaka,Lusaka,Lusaka District Health Office,Lusaka,-15.4067,28.2871,"-15.406700, 28.287100","https://www.google.com/maps?q=-15.406700,28.287100",WGS 84 / EPSG:4326,District-capital or district-reference proxy,Proxy only—DHO building not independently verified,Yes,,Coordinate inherited from the district-capital reference dataset. Do not treat as the DHO building entrance until field-verified.,https://download.geonames.org/export/dump/,23/07/2026
District,Lusaka,Rufunsa,Rufunsa District Health Office,Rufunsa,-15.14901,29.52447,"-15.149010, 29.524470","https://www.google.com/maps?q=-15.149010,29.524470",WGS 84 / EPSG:4326,District-capital or district-reference proxy,Proxy only—DHO building not independently verified,Yes,,Coordinate inherited from the district-capital reference dataset. Do not treat as the DHO building entrance until field-verified.,https://github.com/repoxbeta/repox-countries/tree/main/src/metadata/countries/zm,23/07/2026
District,Muchinga,Chinsali,Chinsali District Health Office,Chinsali,-10.5414,32.0816,"-10.541400, 32.081600","https://www.google.com/maps?q=-10.541400,32.081600",WGS 84 / EPSG:4326,District-capital or district-reference proxy,Proxy only—DHO building not independently verified,Yes,,Coordinate inherited from the district-capital reference dataset. Do not treat as the DHO building entrance until field-verified.,https://download.geonames.org/export/dump/,23/07/2026
District,Muchinga,Isoka,Isoka District Health Office,Isoka,-10.1606,32.6335,"-10.160600, 32.633500","https://www.google.com/maps?q=-10.160600,32.633500",WGS 84 / EPSG:4326,District-capital or district-reference proxy,Proxy only—DHO building not independently verified,Yes,,Coordinate inherited from the district-capital reference dataset. Do not treat as the DHO building entrance until field-verified.,https://download.geonames.org/export/dump/,23/07/2026
District,Muchinga,Kanchibiya,Kanchibiya District Health Office,Kanchibiya,-11.9,31.2667,"-11.900000, 31.266700","https://www.google.com/maps?q=-11.900000,31.266700",WGS 84 / EPSG:4326,District-capital or district-reference proxy,Proxy only—DHO building not independently verified,Yes,,Coordinate inherited from the district-capital reference dataset. Do not treat as the DHO building entrance until field-verified.,https://www.kanchibiyacouncil.gov.zm/,23/07/2026
District,Muchinga,Lavushimanda,Lavushimanda District Health Office,Kalonje,-12.67453,31.00936,"-12.674530, 31.009360","https://www.google.com/maps?q=-12.674530,31.009360",WGS 84 / EPSG:4326,District-capital or district-reference proxy,Proxy only—DHO building not independently verified,Yes,,Coordinate inherited from the district-capital reference dataset. Do not treat as the DHO building entrance until field-verified.,https://www.lavushimandacouncil.gov.zm/?page_id=118,23/07/2026
District,Muchinga,Mafinga,Mafinga District Health Office,Muyombe / Mafinga,-10.37647,33.39867,"-10.376470, 33.398670","https://www.google.com/maps?q=-10.376470,33.398670",WGS 84 / EPSG:4326,District-capital or district-reference proxy,Proxy only—DHO building not independently verified,Yes,,Coordinate inherited from the district-capital reference dataset. Do not treat as the DHO building entrance until field-verified.,https://github.com/repoxbeta/repox-countries/tree/main/src/metadata/countries/zm,23/07/2026
District,Muchinga,Mpika,Mpika District Health Office,Mpika,-11.8343,31.4529,"-11.834300, 31.452900","https://www.google.com/maps?q=-11.834300,31.452900",WGS 84 / EPSG:4326,District-capital or district-reference proxy,Proxy only—DHO building not independently verified,Yes,,Coordinate inherited from the district-capital reference dataset. Do not treat as the DHO building entrance until field-verified.,https://download.geonames.org/export/dump/,23/07/2026
District,Muchinga,Nakonde,Nakonde District Health Office,Nakonde,-9.34213,32.745,"-9.342130, 32.745000","https://www.google.com/maps?q=-9.342130,32.745000",WGS 84 / EPSG:4326,District-capital or district-reference proxy,Proxy only—DHO building not independently verified,Yes,,Coordinate inherited from the district-capital reference dataset. Do not treat as the DHO building entrance until field-verified.,https://download.geonames.org/export/dump/,23/07/2026
District,Muchinga,Shiwang'andu,Shiwang'andu District Health Office,Shiwang'andu,-10.98893,31.69332,"-10.988930, 31.693320","https://www.google.com/maps?q=-10.988930,31.693320",WGS 84 / EPSG:4326,District-capital or district-reference proxy,Proxy only—DHO building not independently verified,Yes,,Coordinate inherited from the district-capital reference dataset. Do not treat as the DHO building entrance until field-verified.,https://github.com/repoxbeta/repox-countries/tree/main/src/metadata/countries/zm,23/07/2026
District,Northern,Chilubi,Chilubi District Health Office,Chilubi,-11.03808,30.26299,"-11.038080, 30.262990","https://www.google.com/maps?q=-11.038080,30.262990",WGS 84 / EPSG:4326,District-capital or district-reference proxy,Proxy only—DHO building not independently verified,Yes,,Coordinate inherited from the district-capital reference dataset. Do not treat as the DHO building entrance until field-verified.,https://github.com/repoxbeta/repox-countries/tree/main/src/metadata/countries/zm,23/07/2026
District,Northern,Kaputa,Kaputa District Health Office,Kaputa,-8.7505,29.43523,"-8.750500, 29.435230","https://www.google.com/maps?q=-8.750500,29.435230",WGS 84 / EPSG:4326,District-capital or district-reference proxy,Proxy only—DHO building not independently verified,Yes,,Coordinate inherited from the district-capital reference dataset. Do not treat as the DHO building entrance until field-verified.,https://github.com/repoxbeta/repox-countries/tree/main/src/metadata/countries/zm,23/07/2026
District,Northern,Kasama,Kasama District Health Office,Kasama,-10.2129,31.1808,"-10.212900, 31.180800","https://www.google.com/maps?q=-10.212900,31.180800",WGS 84 / EPSG:4326,District-capital or district-reference proxy,Proxy only—DHO building not independently verified,Yes,,Coordinate inherited from the district-capital reference dataset. Do not treat as the DHO building entrance until field-verified.,https://download.geonames.org/export/dump/,23/07/2026
District,Northern,Lunte,Lunte District Health Office,Lunte,-10.21195,30.23353,"-10.211950, 30.233530","https://www.google.com/maps?q=-10.211950,30.233530",WGS 84 / EPSG:4326,District-capital or district-reference proxy,Proxy only—DHO building not independently verified,Yes,,Coordinate inherited from the district-capital reference dataset. Do not treat as the DHO building entrance until field-verified.,https://www.openstreetmap.org/,23/07/2026
District,Northern,Lupososhi,Lupososhi District Health Office,Lupososhi,-10.527942,29.700067,"-10.527942, 29.700067","https://www.google.com/maps?q=-10.527942,29.700067",WGS 84 / EPSG:4326,District-capital or district-reference proxy,Proxy only—DHO building not independently verified,Yes,,Coordinate inherited from the district-capital reference dataset. Do not treat as the DHO building entrance until field-verified.,https://www.openstreetmap.org/,23/07/2026
District,Northern,Luwingu,Luwingu District Health Office,Luwingu,-10.2621,29.9271,"-10.262100, 29.927100","https://www.google.com/maps?q=-10.262100,29.927100",WGS 84 / EPSG:4326,District-capital or district-reference proxy,Proxy only—DHO building not independently verified,Yes,,Coordinate inherited from the district-capital reference dataset. Do not treat as the DHO building entrance until field-verified.,https://download.geonames.org/export/dump/,23/07/2026
District,Northern,Mbala,Mbala District Health Office,Mbala,-8.84024,31.3659,"-8.840240, 31.365900","https://www.google.com/maps?q=-8.840240,31.365900",WGS 84 / EPSG:4326,District-capital or district-reference proxy,Proxy only—DHO building not independently verified,Yes,,Coordinate inherited from the district-capital reference dataset. Do not treat as the DHO building entrance until field-verified.,https://download.geonames.org/export/dump/,23/07/2026
District,Northern,Mporokoso,Mporokoso District Health Office,Mporokoso,-9.6869,30.19776,"-9.686900, 30.197760","https://www.google.com/maps?q=-9.686900,30.197760",WGS 84 / EPSG:4326,District-capital or district-reference proxy,Proxy only—DHO building not independently verified,Yes,,Coordinate inherited from the district-capital reference dataset. Do not treat as the DHO building entrance until field-verified.,https://github.com/repoxbeta/repox-countries/tree/main/src/metadata/countries/zm,23/07/2026
District,Northern,Mpulungu,Mpulungu District Health Office,Mpulungu,-8.76234,31.114,"-8.762340, 31.114000","https://www.google.com/maps?q=-8.762340,31.114000",WGS 84 / EPSG:4326,District-capital or district-reference proxy,Proxy only—DHO building not independently verified,Yes,,Coordinate inherited from the district-capital reference dataset. Do not treat as the DHO building entrance until field-verified.,https://download.geonames.org/export/dump/,23/07/2026
District,Northern,Mungwi,Mungwi District Health Office,Mungwi,-10.1732,31.3694,"-10.173200, 31.369400","https://www.google.com/maps?q=-10.173200,31.369400",WGS 84 / EPSG:4326,District-capital or district-reference proxy,Proxy only—DHO building not independently verified,Yes,,Coordinate inherited from the district-capital reference dataset. Do not treat as the DHO building entrance until field-verified.,https://download.geonames.org/export/dump/,23/07/2026
District,Northern,Nsama,Nsama District Health Office,Nsama,-8.75612,29.97167,"-8.756120, 29.971670","https://www.google.com/maps?q=-8.756120,29.971670",WGS 84 / EPSG:4326,District-capital or district-reference proxy,Proxy only—DHO building not independently verified,Yes,,Coordinate inherited from the district-capital reference dataset. Do not treat as the DHO building entrance until field-verified.,https://github.com/repoxbeta/repox-countries/tree/main/src/metadata/countries/zm,23/07/2026
District,Northern,Senga,Senga District Health Office,Mambwe Mission (Senga Hill),-9.36096,31.22386,"-9.360960, 31.223860","https://www.google.com/maps?q=-9.360960,31.223860",WGS 84 / EPSG:4326,District-capital or district-reference proxy,Proxy only—DHO building not independently verified,Yes,,Coordinate inherited from the district-capital reference dataset. Do not treat as the DHO building entrance until field-verified.,https://www.sengahillcouncil.gov.zm/?page_id=4078,23/07/2026
District,North-Western,Chavuma,Chavuma District Health Office,Chavuma,-13.19765,22.38958,"-13.197650, 22.389580","https://www.google.com/maps?q=-13.197650,22.389580",WGS 84 / EPSG:4326,District-capital or district-reference proxy,Proxy only—DHO building not independently verified,Yes,,Coordinate inherited from the district-capital reference dataset. Do not treat as the DHO building entrance until field-verified.,https://github.com/repoxbeta/repox-countries/tree/main/src/metadata/countries/zm,23/07/2026
District,North-Western,Ikelenge,Ikelenge District Health Office,Ikelenge,-11.23772,24.20839,"-11.237720, 24.208390","https://www.google.com/maps?q=-11.237720,24.208390",WGS 84 / EPSG:4326,District-capital or district-reference proxy,Proxy only—DHO building not independently verified,Yes,,Coordinate inherited from the district-capital reference dataset. Do not treat as the DHO building entrance until field-verified.,https://github.com/repoxbeta/repox-countries/tree/main/src/metadata/countries/zm,23/07/2026
District,North-Western,Kabompo,Kabompo District Health Office,Kabompo,-13.5927,24.2008,"-13.592700, 24.200800","https://www.google.com/maps?q=-13.592700,24.200800",WGS 84 / EPSG:4326,District-capital or district-reference proxy,Proxy only—DHO building not independently verified,Yes,,Coordinate inherited from the district-capital reference dataset. Do not treat as the DHO building entrance until field-verified.,https://download.geonames.org/export/dump/,23/07/2026
District,North-Western,Kalumbila,Kalumbila District Health Office,Kalumbila,-12.30831,25.83949,"-12.308310, 25.839490","https://www.google.com/maps?q=-12.308310,25.839490",WGS 84 / EPSG:4326,Mapped DHO point,Verified public map point,No,,Mapped as Kalumbila District Health Office.,https://mapcarta.com/N9348108965,23/07/2026
District,North-Western,Kasempa,Kasempa District Health Office,Kasempa,-13.4584,25.8338,"-13.458400, 25.833800","https://www.google.com/maps?q=-13.458400,25.833800",WGS 84 / EPSG:4326,District-capital or district-reference proxy,Proxy only—DHO building not independently verified,Yes,,Coordinate inherited from the district-capital reference dataset. Do not treat as the DHO building entrance until field-verified.,https://download.geonames.org/export/dump/,23/07/2026
District,North-Western,Manyinga,Manyinga District Health Office,Manyinga,-12.9722,24.32063,"-12.972200, 24.320630","https://www.google.com/maps?q=-12.972200,24.320630",WGS 84 / EPSG:4326,District-capital or district-reference proxy,Proxy only—DHO building not independently verified,Yes,,Coordinate inherited from the district-capital reference dataset. Do not treat as the DHO building entrance until field-verified.,https://github.com/repoxbeta/repox-countries/tree/main/src/metadata/countries/zm,23/07/2026
District,North-Western,Mufumbwe,Mufumbwe District Health Office,Mufumbwe,-13.6833,24.8,"-13.683300, 24.800000","https://www.google.com/maps?q=-13.683300,24.800000",WGS 84 / EPSG:4326,District-capital or district-reference proxy,Proxy only—DHO building not independently verified,Yes,,Coordinate inherited from the district-capital reference dataset. Do not treat as the DHO building entrance until field-verified.,https://download.geonames.org/export/dump/,23/07/2026
District,North-Western,Mushindamo,Mushindamo District Health Office,Mushindamo,-12.5,26.833333,"-12.500000, 26.833333","https://www.google.com/maps?q=-12.500000,26.833333",WGS 84 / EPSG:4326,District-capital or district-reference proxy,Proxy only—DHO building not independently verified,Yes,,Coordinate inherited from the district-capital reference dataset. Do not treat as the DHO building entrance until field-verified.,https://github.com/repoxbeta/repox-countries/tree/main/src/metadata/countries/zm,23/07/2026
District,North-Western,Mwinilunga,Mwinilunga District Health Office,Mwinilunga,-11.7358,24.4293,"-11.735800, 24.429300","https://www.google.com/maps?q=-11.735800,24.429300",WGS 84 / EPSG:4326,District-capital or district-reference proxy,Proxy only—DHO building not independently verified,Yes,,Coordinate inherited from the district-capital reference dataset. Do not treat as the DHO building entrance until field-verified.,https://download.geonames.org/export/dump/,23/07/2026
District,North-Western,Solwezi,Solwezi District Health Office,Solwezi,-12.1688,26.3894,"-12.168800, 26.389400","https://www.google.com/maps?q=-12.168800,26.389400",WGS 84 / EPSG:4326,District-capital or district-reference proxy,Proxy only—DHO building not independently verified,Yes,,Coordinate inherited from the district-capital reference dataset. Do not treat as the DHO building entrance until field-verified.,https://download.geonames.org/export/dump/,23/07/2026
District,North-Western,Zambezi,Zambezi District Health Office,Zambezi,-13.5432,23.1047,"-13.543200, 23.104700","https://www.google.com/maps?q=-13.543200,23.104700",WGS 84 / EPSG:4326,District-capital or district-reference proxy,Proxy only—DHO building not independently verified,Yes,,Coordinate inherited from the district-capital reference dataset. Do not treat as the DHO building entrance until field-verified.,https://download.geonames.org/export/dump/,23/07/2026
District,Southern,Chikankata,Chikankata District Health Office,Chikankata,-16.03566,28.23971,"-16.035660, 28.239710","https://www.google.com/maps?q=-16.035660,28.239710",WGS 84 / EPSG:4326,District-capital or district-reference proxy,Proxy only—DHO building not independently verified,Yes,,Coordinate inherited from the district-capital reference dataset. Do not treat as the DHO building entrance until field-verified.,https://github.com/repoxbeta/repox-countries/tree/main/src/metadata/countries/zm,23/07/2026
District,Southern,Chirundu,Chirundu District Health Office,Chirundu,-16.13283,28.68775,"-16.132830, 28.687750","https://www.google.com/maps?q=-16.132830,28.687750",WGS 84 / EPSG:4326,District-capital or district-reference proxy,Proxy only—DHO building not independently verified,Yes,,Coordinate inherited from the district-capital reference dataset. Do not treat as the DHO building entrance until field-verified.,https://github.com/repoxbeta/repox-countries/tree/main/src/metadata/countries/zm,23/07/2026
District,Southern,Choma,Choma District Health Office,Choma,-16.8089,26.9875,"-16.808900, 26.987500","https://www.google.com/maps?q=-16.808900,26.987500",WGS 84 / EPSG:4326,District-capital or district-reference proxy,Proxy only—DHO building not independently verified,Yes,,Coordinate inherited from the district-capital reference dataset. Do not treat as the DHO building entrance until field-verified.,https://download.geonames.org/export/dump/,23/07/2026
District,Southern,Gwembe,Gwembe District Health Office,Gwembe,-16.64077,27.88502,"-16.640770, 27.885020","https://www.google.com/maps?q=-16.640770,27.885020",WGS 84 / EPSG:4326,District-capital or district-reference proxy,Proxy only—DHO building not independently verified,Yes,,Coordinate inherited from the district-capital reference dataset. Do not treat as the DHO building entrance until field-verified.,https://github.com/repoxbeta/repox-countries/tree/main/src/metadata/countries/zm,23/07/2026
District,Southern,Itezhi-Tezhi,Itezhi-Tezhi District Health Office,Itezhi-Tezhi,-15.74092,26.04146,"-15.740920, 26.041460","https://www.google.com/maps?q=-15.740920,26.041460",WGS 84 / EPSG:4326,District-capital or district-reference proxy,Proxy only—DHO building not independently verified,Yes,,Coordinate inherited from the district-capital reference dataset. Do not treat as the DHO building entrance until field-verified.,https://github.com/repoxbeta/repox-countries/tree/main/src/metadata/countries/zm,23/07/2026
District,Southern,Kalomo,Kalomo District Health Office,Kalomo,-17.02413,26.4914,"-17.024130, 26.491400","https://www.google.com/maps?q=-17.024130,26.491400",WGS 84 / EPSG:4326,Mapped DHO building,Verified public map point,No,,Mapped near Kalomo Immigration Office.,https://mapcarta.com/W482516406,23/07/2026
District,Southern,Kazungula,Kazungula District Health Office,Kazungula,-17.066,25.687,"-17.066000, 25.687000","https://www.google.com/maps?q=-17.066000,25.687000",WGS 84 / EPSG:4326,District-capital or district-reference proxy,Proxy only—DHO building not independently verified,Yes,,Coordinate inherited from the district-capital reference dataset. Do not treat as the DHO building entrance until field-verified.,https://github.com/repoxbeta/repox-countries/tree/main/src/metadata/countries/zm,23/07/2026
District,Southern,Livingstone,Livingstone District Health Office,Livingstone,-17.85346,25.85886,"-17.853460, 25.858860","https://www.google.com/maps?q=-17.853460,25.858860",WGS 84 / EPSG:4326,Mapped DHO point,Verified public map point,No,,Mapped on Tanzania Road.,https://mapcarta.com/N8482791517,23/07/2026
District,Southern,Mazabuka,Mazabuka District Health Office,Mazabuka,-15.86409,27.75806,"-15.864090, 27.758060","https://www.google.com/maps?q=-15.864090,27.758060",WGS 84 / EPSG:4326,Mapped DHO compound,Verified public map point,No,,Mapped on Mulungushi Road.,https://mapcarta.com/W505592987,23/07/2026
District,Southern,Monze,Monze District Health Office,Monze,-16.2833,27.4833,"-16.283300, 27.483300","https://www.google.com/maps?q=-16.283300,27.483300",WGS 84 / EPSG:4326,District-capital or district-reference proxy,Proxy only—DHO building not independently verified,Yes,,Coordinate inherited from the district-capital reference dataset. Do not treat as the DHO building entrance until field-verified.,https://download.geonames.org/export/dump/,23/07/2026
District,Southern,Namwala,Namwala District Health Office,Namwala,-15.91068,26.76462,"-15.910680, 26.764620","https://www.google.com/maps?q=-15.910680,26.764620",WGS 84 / EPSG:4326,District-capital or district-reference proxy,Proxy only—DHO building not independently verified,Yes,,Coordinate inherited from the district-capital reference dataset. Do not treat as the DHO building entrance until field-verified.,https://github.com/repoxbeta/repox-countries/tree/main/src/metadata/countries/zm,23/07/2026
District,Southern,Pemba,Pemba District Health Office,Pemba,-16.67265,27.38679,"-16.672650, 27.386790","https://www.google.com/maps?q=-16.672650,27.386790",WGS 84 / EPSG:4326,District-capital or district-reference proxy,Proxy only—DHO building not independently verified,Yes,,Coordinate inherited from the district-capital reference dataset. Do not treat as the DHO building entrance until field-verified.,https://github.com/repoxbeta/repox-countries/tree/main/src/metadata/countries/zm,23/07/2026
District,Southern,Siavonga,Siavonga District Health Office,Siavonga,-16.5382,28.7088,"-16.538200, 28.708800","https://www.google.com/maps?q=-16.538200,28.708800",WGS 84 / EPSG:4326,District-capital or district-reference proxy,Proxy only—DHO building not independently verified,Yes,,Coordinate inherited from the district-capital reference dataset. Do not treat as the DHO building entrance until field-verified.,https://download.geonames.org/export/dump/,23/07/2026
District,Southern,Sinazongwe,Sinazongwe District Health Office,Sinazongwe,-17.2614,27.4618,"-17.261400, 27.461800","https://www.google.com/maps?q=-17.261400,27.461800",WGS 84 / EPSG:4326,District-capital or district-reference proxy,Proxy only—DHO building not independently verified,Yes,,Coordinate inherited from the district-capital reference dataset. Do not treat as the DHO building entrance until field-verified.,https://download.geonames.org/export/dump/,23/07/2026
District,Southern,Zimba,Zimba District Health Office,Zimba,-17.61733,26.54468,"-17.617330, 26.544680","https://www.google.com/maps?q=-17.617330,26.544680",WGS 84 / EPSG:4326,District-capital or district-reference proxy,Proxy only—DHO building not independently verified,Yes,,Coordinate inherited from the district-capital reference dataset. Do not treat as the DHO building entrance until field-verified.,https://github.com/repoxbeta/repox-countries/tree/main/src/metadata/countries/zm,23/07/2026
District,Western,Kalabo,Kalabo District Health Office,Kalabo,-14.9931,22.6793,"-14.993100, 22.679300","https://www.google.com/maps?q=-14.993100,22.679300",WGS 84 / EPSG:4326,District-capital or district-reference proxy,Proxy only—DHO building not independently verified,Yes,,Coordinate inherited from the district-capital reference dataset. Do not treat as the DHO building entrance until field-verified.,https://download.geonames.org/export/dump/,23/07/2026
District,Western,Kaoma,Kaoma District Health Office,Kaoma,-14.7833,24.8,"-14.783300, 24.800000","https://www.google.com/maps?q=-14.783300,24.800000",WGS 84 / EPSG:4326,District-capital or district-reference proxy,Proxy only—DHO building not independently verified,Yes,,Coordinate inherited from the district-capital reference dataset. Do not treat as the DHO building entrance until field-verified.,https://download.geonames.org/export/dump/,23/07/2026
District,Western,Limulunga,Limulunga District Health Office,Limulunga,-15.0969,23.1376,"-15.096900, 23.137600","https://www.google.com/maps?q=-15.096900,23.137600",WGS 84 / EPSG:4326,District-capital or district-reference proxy,Proxy only—DHO building not independently verified,Yes,,Coordinate inherited from the district-capital reference dataset. Do not treat as the DHO building entrance until field-verified.,https://download.geonames.org/export/dump/,23/07/2026
District,Western,Luampa,Luampa District Health Office,Luampa,-15.29072,24.74439,"-15.290720, 24.744390","https://www.google.com/maps?q=-15.290720,24.744390",WGS 84 / EPSG:4326,District-capital or district-reference proxy,Proxy only—DHO building not independently verified,Yes,,Coordinate inherited from the district-capital reference dataset. Do not treat as the DHO building entrance until field-verified.,https://github.com/repoxbeta/repox-countries/tree/main/src/metadata/countries/zm,23/07/2026
District,Western,Lukulu,Lukulu District Health Office,Lukulu,-14.22997,23.8294,"-14.229970, 23.829400","https://www.google.com/maps?q=-14.229970,23.829400",WGS 84 / EPSG:4326,District-capital or district-reference proxy,Proxy only—DHO building not independently verified,Yes,,Coordinate inherited from the district-capital reference dataset. Do not treat as the DHO building entrance until field-verified.,https://github.com/repoxbeta/repox-countries/tree/main/src/metadata/countries/zm,23/07/2026
District,Western,Mitete,Mitete District Health Office,Mitete,-14.10042,22.6472,"-14.100420, 22.647200","https://www.google.com/maps?q=-14.100420,22.647200",WGS 84 / EPSG:4326,District-capital or district-reference proxy,Proxy only—DHO building not independently verified,Yes,,Coordinate inherited from the district-capital reference dataset. Do not treat as the DHO building entrance until field-verified.,https://github.com/repoxbeta/repox-countries/tree/main/src/metadata/countries/zm,23/07/2026
District,Western,Mongu,Mongu District Health Office,Mongu,-15.2484,23.1274,"-15.248400, 23.127400","https://www.google.com/maps?q=-15.248400,23.127400",WGS 84 / EPSG:4326,District-capital or district-reference proxy,Proxy only—DHO building not independently verified,Yes,,Coordinate inherited from the district-capital reference dataset. Do not treat as the DHO building entrance until field-verified.,https://download.geonames.org/export/dump/,23/07/2026
District,Western,Mulobezi,Mulobezi District Health Office,Mulobezi,-16.2138,24.7201,"-16.213800, 24.720100","https://www.google.com/maps?q=-16.213800,24.720100",WGS 84 / EPSG:4326,District-capital or district-reference proxy,Proxy only—DHO building not independently verified,Yes,,Coordinate inherited from the district-capital reference dataset. Do not treat as the DHO building entrance until field-verified.,https://github.com/repoxbeta/repox-countries/tree/main/src/metadata/countries/zm,23/07/2026
District,Western,Mwandi,Mwandi District Health Office,Mwandi,-17.09101,24.63103,"-17.091010, 24.631030","https://www.google.com/maps?q=-17.091010,24.631030",WGS 84 / EPSG:4326,District-capital or district-reference proxy,Proxy only—DHO building not independently verified,Yes,,Coordinate inherited from the district-capital reference dataset. Do not treat as the DHO building entrance until field-verified.,https://github.com/repoxbeta/repox-countries/tree/main/src/metadata/countries/zm,23/07/2026
District,Western,Nalolo,Nalolo District Health Office,Nalolo,-15.77385,22.99538,"-15.773850, 22.995380","https://www.google.com/maps?q=-15.773850,22.995380",WGS 84 / EPSG:4326,District-capital or district-reference proxy,Proxy only—DHO building not independently verified,Yes,,Coordinate inherited from the district-capital reference dataset. Do not treat as the DHO building entrance until field-verified.,https://github.com/repoxbeta/repox-countries/tree/main/src/metadata/countries/zm,23/07/2026
District,Western,Nkeyema,Nkeyema District Health Office,Nkeyema,-14.85076,25.14925,"-14.850760, 25.149250","https://www.google.com/maps?q=-14.850760,25.149250",WGS 84 / EPSG:4326,District-capital or district-reference proxy,Proxy only—DHO building not independently verified,Yes,,Coordinate inherited from the district-capital reference dataset. Do not treat as the DHO building entrance until field-verified.,https://github.com/repoxbeta/repox-countries/tree/main/src/metadata/countries/zm,23/07/2026
District,Western,Senanga,Senanga District Health Office,Senanga,-16.1167,23.2667,"-16.116700, 23.266700","https://www.google.com/maps?q=-16.116700,23.266700",WGS 84 / EPSG:4326,District-capital or district-reference proxy,Proxy only—DHO building not independently verified,Yes,,Coordinate inherited from the district-capital reference dataset. Do not treat as the DHO building entrance until field-verified.,https://download.geonames.org/export/dump/,23/07/2026
District,Western,Sesheke,Sesheke District Health Office,Sesheke,-17.4759,24.2968,"-17.475900, 24.296800","https://www.google.com/maps?q=-17.475900,24.296800",WGS 84 / EPSG:4326,District-capital or district-reference proxy,Proxy only—DHO building not independently verified,Yes,,Coordinate inherited from the district-capital reference dataset. Do not treat as the DHO building entrance until field-verified.,https://download.geonames.org/export/dump/,23/07/2026
District,Western,Shang'ombo,Shang'ombo District Health Office,Shang'ombo,-16.30827,22.45556,"-16.308270, 22.455560","https://www.google.com/maps?q=-16.308270,22.455560",WGS 84 / EPSG:4326,District-capital or district-reference proxy,Proxy only—DHO building not independently verified,Yes,,Coordinate inherited from the district-capital reference dataset. Do not treat as the DHO building entrance until field-verified.,https://github.com/repoxbeta/repox-countries/tree/main/src/metadata/countries/zm,23/07/2026
District,Western,Sikongo,Sikongo District Health Office,Sikongo,-15.23673,22.17756,"-15.236730, 22.177560","https://www.google.com/maps?q=-15.236730,22.177560",WGS 84 / EPSG:4326,District-capital or district-reference proxy,Proxy only—DHO building not independently verified,Yes,,Coordinate inherited from the district-capital reference dataset. Do not treat as the DHO building entrance until field-verified.,https://github.com/repoxbeta/repox-countries/tree/main/src/metadata/countries/zm,23/07/2026
District,Western,Sioma,Sioma District Health Office,Sioma,-16.75362,23.2221,"-16.753620, 23.222100","https://www.google.com/maps?q=-16.753620,23.222100",WGS 84 / EPSG:4326,District-capital or district-reference proxy,Proxy only—DHO building not independently verified,Yes,,Coordinate inherited from the district-capital reference dataset. Do not treat as the DHO building entrance until field-verified.,https://github.com/repoxbeta/repox-countries/tree/main/src/metadata/countries/zm,23/07/2026
